[
  {
    "name": "Lorraine Buckridge",
    "website": "https://heartfelt-willow.biz/",
    "location": {
      "city": "qwaMGIWWrY",
      "country": "MZhAil"
    },
    "id": "de670878-f883-4798-b30d-ca1b754df995"
  },
  {
    "name": "Elizabeth Lind",
    "website": "https://unruly-dead.name/",
    "location": {
      "city": "JuPVvqs",
      "country": "lyfED"
    },
    "id": "11b5cbe7-8486-4abd-97f3-63c722c50596"
  },
  {
    "name": "Danny Beier",
    "website": "https://lasting-going.com/",
    "location": {
      "city": "tucsKn",
      "country": "fFRFiwa"
    },
    "id": "6a03c681-1af0-4252-97f4-c3b079d804c0"
  },
  {
    "name": "Mr. Nicolas Emard",
    "website": "https://mealy-iridescence.org/",
    "location": {
      "city": "kMkpV",
      "country": "uqgGkReT"
    },
    "id": "ffb864ad-4785-4fd1-9eee-fd35032e276b"
  },
  {
    "name": "Oliver Waelchi IV",
    "website": "https://unrealistic-mousse.com/",
    "location": {
      "city": "tDPUNPdMZ",
      "country": "cyEhUNUUnP"
    },
    "id": "75193909-90d4-49e3-952f-dcac0b2576f3"
  },
  {
    "name": "Ruben Durgan",
    "website": "https://stingy-chops.net/",
    "location": {
      "city": "mmMPRpRWg",
      "country": "LHBdc"
    },
    "id": "4f5951a5-5354-4976-b69c-95411a4366dd"
  },
  {
    "name": "Santiago Herman",
    "website": "https://kooky-encouragement.name/",
    "location": {
      "city": "TdolV",
      "country": "kzGLSROl"
    },
    "id": "b7ba26a4-a3af-40d0-a122-5f68ea5a7bab"
  },
  {
    "name": "Grace Murazik",
    "website": "https://mature-reporter.name/",
    "location": {
      "city": "iwSabg",
      "country": "rormGsK"
    },
    "id": "eaeddf51-1b3e-41e3-a8b2-36f0770644e9"
  },
  {
    "name": "Mrs. Alicia Lang",
    "website": "https://angelic-smoke.biz",
    "location": {
      "city": "pxlyIM",
      "country": "JbbqZh"
    },
    "id": "5117885f-5165-4e9d-a630-b159e77e90bf"
  },
  {
    "name": "Mildred Oberbrunner DDS",
    "website": "https://glum-digestive.biz",
    "location": {
      "city": "RAsBNPRV",
      "country": "EEzyInZ"
    },
    "id": "5b025532-7734-48eb-8b64-10192f00c094"
  }
]